[{"city":"Bogotá","admin":"Bogotá","country":"Colombia","population_proper":"6333661","iso2":"CO","capital":"primary","lat":"4.649178","lng":"-74.062827","population":"7772000"},{"city":"Medellín","admin":"Antioquia","country":"Colombia","population_proper":"1999979","iso2":"CO","capital":"admin","lat":"6.25184","lng":"-75.563591","population":"3297000"},{"city":"Cali","admin":"Valle del Cauca","country":"Colombia","population_proper":"2178836","iso2":"CO","capital":"admin","lat":"3.437222","lng":"-76.5225","population":"2254000"},{"city":"Barranquilla","admin":"Atlántico","country":"Colombia","population_proper":"1244491","iso2":"CO","capital":"admin","lat":"10.963889","lng":"-74.796389","population":"1798000"},{"city":"Bucaramanga","admin":"Santander","country":"Colombia","population_proper":"571820","iso2":"CO","capital":"admin","lat":"7.125393","lng":"-73.119804","population":"1009000"},{"city":"Cartagena","admin":"Bolívar","country":"Colombia","population_proper":"887000","iso2":"CO","capital":"admin","lat":"10.399722","lng":"-75.514444","population":"887000"},{"city":"Cúcuta","admin":"Norte de Santander","country":"Colombia","population_proper":"721398","iso2":"CO","capital":"admin","lat":"7.893907","lng":"-72.507821","population":"722146"},{"city":"Soledad","admin":"Atlántico","country":"Colombia","population_proper":"342556","iso2":"CO","capital":"","lat":"10.918433","lng":"-74.76459","population":"698852"},{"city":"Pereira","admin":"Risaralda","country":"Colombia","population_proper":"440118","iso2":"CO","capital":"admin","lat":"4.813333","lng":"-75.696111","population":"568750"},{"city":"Santa Marta","admin":"Magdalena","country":"Colombia","population_proper":"402641","iso2":"CO","capital":"admin","lat":"11.240791","lng":"-74.19904","population":"431781"},{"city":"Ibagué","admin":"Tolima","country":"Colombia","population_proper":"408627","iso2":"CO","capital":"admin","lat":"4.438889","lng":"-75.232222","population":"421685"},{"city":"Pasto","admin":"Nariño","country":"Colombia","population_proper":"360041","iso2":"CO","capital":"admin","lat":"1.213611","lng":"-77.281111","population":"382236"},{"city":"Manizales","admin":"Caldas","country":"Colombia","population_proper":"357814","iso2":"CO","capital":"admin","lat":"5.06889","lng":"-75.517383","population":"375848"},{"city":"Villavicencio","admin":"Meta","country":"Colombia","population_proper":"321717","iso2":"CO","capital":"admin","lat":"4.142002","lng":"-73.626645","population":"374763"},{"city":"Neiva","admin":"Huila","country":"Colombia","population_proper":"284277","iso2":"CO","capital":"admin","lat":"2.927299","lng":"-75.281885","population":"352855"},{"city":"Armenia","admin":"Quindío","country":"Colombia","population_proper":"314267","iso2":"CO","capital":"admin","lat":"4.533889","lng":"-75.681111","population":"315328"},{"city":"Valledupar","admin":"Cesar","country":"Colombia","population_proper":"287018","iso2":"CO","capital":"admin","lat":"10.46314","lng":"-73.253224","population":"308237"},{"city":"Montería","admin":"Córdoba","country":"Colombia","population_proper":"272420","iso2":"CO","capital":"admin","lat":"8.747984","lng":"-75.881428","population":"275198"},{"city":"Sincelejo","admin":"Sucre","country":"Colombia","population_proper":"218388","iso2":"CO","capital":"admin","lat":"9.304722","lng":"-75.397778","population":"261187"},{"city":"Popayán","admin":"Cauca","country":"Colombia","population_proper":"258750","iso2":"CO","capital":"admin","lat":"2.444444","lng":"-76.613889","population":"258750"},{"city":"Buenaventura","admin":"Valle del Cauca","country":"Colombia","population_proper":"240387","iso2":"CO","capital":"","lat":"3.880099","lng":"-77.031164","population":"252805"},{"city":"Barrancabermeja","admin":"Santander","country":"Colombia","population_proper":"164201","iso2":"CO","capital":"","lat":"7.065278","lng":"-73.854722","population":"191403"},{"city":"Tuluá","admin":"Valle del Cauca","country":"Colombia","population_proper":"163062","iso2":"CO","capital":"","lat":"4.084656","lng":"-76.19536","population":"165501"},{"city":"Tunja","admin":"Boyacá","country":"Colombia","population_proper":"117479","iso2":"CO","capital":"admin","lat":"5.535278","lng":"-73.367778","population":"161412"},{"city":"Cartago","admin":"Valle del Cauca","country":"Colombia","population_proper":"111513","iso2":"CO","capital":"","lat":"4.746389","lng":"-75.911667","population":"134827"},{"city":"Ríohacha","admin":"La Guajira","country":"Colombia","population_proper":"92431","iso2":"CO","capital":"admin","lat":"11.544444","lng":"-72.907222","population":"133186"},{"city":"Ciénaga","admin":"Magdalena","country":"Colombia","population_proper":"88311","iso2":"CO","capital":"","lat":"11.007029","lng":"-74.247646","population":"131171"},{"city":"Florencia","admin":"Caquetá","country":"Colombia","population_proper":"44861","iso2":"CO","capital":"admin","lat":"1.614382","lng":"-75.606229","population":"130337"},{"city":"Girardot","admin":"Cundinamarca","country":"Colombia","population_proper":"113372","iso2":"CO","capital":"","lat":"4.298659","lng":"-74.804681","population":"130289"},{"city":"Sogamoso","admin":"Boyacá","country":"Colombia","population_proper":"113592","iso2":"CO","capital":"","lat":"5.714344","lng":"-72.933908","population":"126551"},{"city":"Pupiales","admin":"Nariño","country":"Colombia","population_proper":"77729","iso2":"CO","capital":"","lat":"0.87136","lng":"-77.640269","population":"109618"},{"city":"Duitama","admin":"Boyacá","country":"Colombia","population_proper":"92040","iso2":"CO","capital":"","lat":"5.824499","lng":"-73.034083","population":"101156"},{"city":"Magangué","admin":"Bolívar","country":"Colombia","population_proper":"89511","iso2":"CO","capital":"","lat":"9.242024","lng":"-74.754671","population":"100313"},{"city":"Quibdó","admin":"Chocó","country":"Colombia","population_proper":"75104","iso2":"CO","capital":"admin","lat":"5.694722","lng":"-76.661111","population":"92780"},{"city":"Tumaco","admin":"Nariño","country":"Colombia","population_proper":"86713","iso2":"CO","capital":"","lat":"1.798611","lng":"-78.815556","population":"86713"},{"city":"Ocaña","admin":"Norte de Santander","country":"Colombia","population_proper":"83292","iso2":"CO","capital":"","lat":"8.237727","lng":"-73.356038","population":"83511"},{"city":"Arauca","admin":"Arauca","country":"Colombia","population_proper":"23797","iso2":"CO","capital":"admin","lat":"7.084512","lng":"-70.755366","population":"69264"},{"city":"Sabanalarga","admin":"Atlántico","country":"Colombia","population_proper":"63027","iso2":"CO","capital":"","lat":"10.629617","lng":"-74.92063","population":"68535"},{"city":"Yopal","admin":"Casanare","country":"Colombia","population_proper":"61029","iso2":"CO","capital":"admin","lat":"5.337752","lng":"-72.395859","population":"61029"},{"city":"El Carmen de Bolívar","admin":"Bolívar","country":"Colombia","population_proper":"47957","iso2":"CO","capital":"","lat":"9.717396","lng":"-75.120232","population":"60980"},{"city":"Leticia","admin":"Amazonas","country":"Colombia","population_proper":"32450","iso2":"CO","capital":"admin","lat":"-4.215278","lng":"-69.940556","population":"59575"},{"city":"San Andrés","admin":"San Andrés y Providencia","country":"Colombia","population_proper":"58257","iso2":"CO","capital":"admin","lat":"12.584722","lng":"-81.700556","population":"58257"},{"city":"Garzón","admin":"Huila","country":"Colombia","population_proper":"29451","iso2":"CO","capital":"","lat":"2.19593","lng":"-75.627773","population":"56603"},{"city":"El Banco","admin":"Magdalena","country":"Colombia","population_proper":"24735","iso2":"CO","capital":"","lat":"9.001137","lng":"-73.975807","population":"54522"},{"city":"Chiquinquirá","admin":"Boyacá","country":"Colombia","population_proper":"45294","iso2":"CO","capital":"","lat":"5.616373","lng":"-73.817484","population":"53975"},{"city":"Pamplona","admin":"Norte de Santander","country":"Colombia","population_proper":"52247","iso2":"CO","capital":"","lat":"7.375647","lng":"-72.647949","population":"53587"},{"city":"Lorica","admin":"Córdoba","country":"Colombia","population_proper":"40605","iso2":"CO","capital":"","lat":"9.236484","lng":"-75.813499","population":"52771"},{"city":"Turbo","admin":"Antioquia","country":"Colombia","population_proper":"34007","iso2":"CO","capital":"","lat":"8.093678","lng":"-76.726908","population":"50508"},{"city":"Arjona","admin":"Bolívar","country":"Colombia","population_proper":"44045","iso2":"CO","capital":"","lat":"10.254444","lng":"-75.343889","population":"50405"},{"city":"Honda","admin":"Tolima","country":"Colombia","population_proper":"28158","iso2":"CO","capital":"","lat":"5.20856","lng":"-74.735842","population":"35469"},{"city":"Yarumal","admin":"Antioquia","country":"Colombia","population_proper":"35315","iso2":"CO","capital":"","lat":"7.030278","lng":"-75.590556","population":"35315"},{"city":"Puerto Berrío","admin":"Antioquia","country":"Colombia","population_proper":"32405","iso2":"CO","capital":"","lat":"6.491565","lng":"-74.403264","population":"33983"},{"city":"Túquerres","admin":"Nariño","country":"Colombia","population_proper":"20184","iso2":"CO","capital":"","lat":"1.088776","lng":"-77.618305","population":"33979"},{"city":"Tame","admin":"Arauca","country":"Colombia","population_proper":"20961","iso2":"CO","capital":"","lat":"6.460647","lng":"-71.736176","population":"29099"},{"city":"Tolú","admin":"Sucre","country":"Colombia","population_proper":"12049","iso2":"CO","capital":"","lat":"9.523919","lng":"-75.581392","population":"27390"},{"city":"Socorro","admin":"Santander","country":"Colombia","population_proper":"17752","iso2":"CO","capital":"","lat":"6.468382","lng":"-73.260224","population":"24895"},{"city":"Ayapel","admin":"Córdoba","country":"Colombia","population_proper":"22602","iso2":"CO","capital":"","lat":"8.313721","lng":"-75.139822","population":"23639"},{"city":"Campoalegre","admin":"Huila","country":"Colombia","population_proper":"11549","iso2":"CO","capital":"","lat":"2.684892","lng":"-75.323109","population":"22568"},{"city":"San José del Guaviare","admin":"Guaviare","country":"Colombia","population_proper":"21214","iso2":"CO","capital":"admin","lat":"2.572858","lng":"-72.645914","population":"22136"},{"city":"Mocoa","admin":"Putumayo","country":"Colombia","population_proper":"22035","iso2":"CO","capital":"admin","lat":"1.149327","lng":"-76.64661","population":"22035"},{"city":"Sonsón","admin":"Antioquia","country":"Colombia","population_proper":"17232","iso2":"CO","capital":"","lat":"5.71062","lng":"-75.310685","population":"18817"},{"city":"Puerto López","admin":"Meta","country":"Colombia","population_proper":"7649","iso2":"CO","capital":"","lat":"4.084514","lng":"-72.955974","population":"16678"},{"city":"San Marcos","admin":"Meta","country":"Colombia","population_proper":"8335","iso2":"CO","capital":"","lat":"3.67274","lng":"-73.656431","population":"16273"},{"city":"Guapi","admin":"Cauca","country":"Colombia","population_proper":"13853","iso2":"CO","capital":"","lat":"2.570823","lng":"-77.885421","population":"13853"},{"city":"Puerto Carreño","admin":"Vichada","country":"Colombia","population_proper":"5861","iso2":"CO","capital":"admin","lat":"6.189031","lng":"-67.485879","population":"10216"},{"city":"Mitú","admin":"Vaupés","country":"Colombia","population_proper":"5917","iso2":"CO","capital":"admin","lat":"1.257778","lng":"-70.234722","population":"5917"},{"city":"Orocué","admin":"Casanare","country":"Colombia","population_proper":"1418","iso2":"CO","capital":"","lat":"4.791175","lng":"-71.335423","population":"2835"},{"city":"Nuquí","admin":"Chocó","country":"Colombia","population_proper":"233","iso2":"CO","capital":"","lat":"5.7125","lng":"-77.270833","population":"2741"},{"city":"Juradó","admin":"Chocó","country":"Colombia","population_proper":"2351","iso2":"CO","capital":"","lat":"7.106113","lng":"-77.75794","population":"2351"},{"city":"San Vicente del Caguán","admin":"Caquetá","country":"Colombia","population_proper":"1000","iso2":"CO","capital":"","lat":"2.121722","lng":"-74.766141","population":"1500"},{"city":"Inírida","admin":"Guainía","country":"Colombia","population_proper":"","iso2":"CO","capital":"admin","lat":"3.865278","lng":"-67.923889","population":""}]